[{"name": "Aguaruna", "family": "Jivaroan", "variety": "std", "url": "http://lingweb.eva.mpg.de/cgi-bin/ids/ids.pl?com=simple_browse&lg_id=258", "lon": "-77.92179", "iso": "agr", "key": "agr_std", "lat": "-5.30044"}, {"name": "Aghul", "family": "North Caucasian,East Caucasian,Lezgic,Nuclear Lezgic,East Lezgic", "variety": "std", "url": "http://lingweb.eva.mpg.de/cgi-bin/ids/ids.pl?com=simple_browse&lg_id=61", "lon": "47.58429", "iso": "agx", "key": "agx_std", "lat": "41.92418"}, {"name": "Akhvakh (Northern)", "family": "North Caucasian,East Caucasian,Avar-Andic,Andic", "variety": "Northern", "url": "http://lingweb.eva.mpg.de/cgi-bin/ids/ids.pl?com=simple_browse&lg_id=33", "lon": "46.30369", "iso": "akv", "key": "akv_Northern", "lat": "42.40035"}, {"name": "Akhvakh (Southern)", "family": "North Caucasian,East Caucasian,Avar-Andic,Andic", "variety": "Southern", "url": "http://lingweb.eva.mpg.de/cgi-bin/ids/ids.pl?com=simple_browse&lg_id=34", "lon": "46.30369", "iso": "akv", "key": "akv_Southern", "lat": "42.40035"}, {"name": "Qawasqar", "family": "Alacalufan", "variety": "std", "url": "http://lingweb.eva.mpg.de/cgi-bin/ids/ids.pl?com=simple_browse&lg_id=313", "lon": "-75.3756", "iso": "alc", "key": "alc_std", "lat": "-49.70303"}, {"name": "Albanian, Tosk", "family": "Indo-European,Albanian,Tosk", "variety": "std", "url": "http://lingweb.eva.mpg.de/cgi-bin/ids/ids.pl?com=simple_browse&lg_id=205", "lon": "20.17993", "iso": "als", "key": "als_std", "lat": "39.84682"}, {"name": "Andi (Muni)", "family": "North Caucasian,East Caucasian,Avar-Andic,Andic", "variety": "Muni", "url": "http://lingweb.eva.mpg.de/cgi-bin/ids/ids.pl?com=simple_browse&lg_id=316", "lon": "46.29187", "iso": "ani", "key": "ani_Muni", "lat": "42.80785"}, {"name": "Andi", "family": "North Caucasian,East Caucasian,Avar-Andic,Andic", "variety": "std", "url": "http://lingweb.eva.mpg.de/cgi-bin/ids/ids.pl?com=simple_browse&lg_id=32", "lon": "46.29187", "iso": "ani", "key": "ani_std", "lat": "42.80785"}, {"name": "Archi (Var1)", "family": "North Caucasian,East Caucasian,Lezgic,Archi", "variety": "Var1", "url": "http://lingweb.eva.mpg.de/cgi-bin/ids/ids.pl?com=simple_browse&lg_id=62", "lon": "46.82673", "iso": "aqc", "key": "aqc_Var1", "lat": "42.3239"}, {"name": "Archi (Var2)", "family": "North Caucasian,East Caucasian,Lezgic,Archi", "variety": "Var2", "url": "http://lingweb.eva.mpg.de/cgi-bin/ids/ids.pl?com=simple_browse&lg_id=62", "lon": "46.82673", "iso": "aqc", "key": "aqc_Var2", "lat": "42.3239"}, {"name": "Archi", "family": "North Caucasian,East Caucasian,Lezgic,Archi", "variety": "std", "url": "http://wold.livingsources.org/vocabulary/16", "lon": "46.82673", "iso": "aqc", "key": "aqc_std", "lat": "42.3239"}, {"name": "Arabic, Standard", "family": "Afro-Asiatic,Semitic,Central,South,Arabic", "variety": "std", "url": "http://lingweb.eva.mpg.de/cgi-bin/ids/ids.pl?com=simple_browse&lg_id=95", "lon": "40.79884", "iso": "arb", "key": "arb_std", "lat": "23.70631"}, {"name": "Mapudungun", "family": "Araucanian", "variety": "std", "url": "http://lingweb.eva.mpg.de/cgi-bin/ids/ids.pl?com=simple_browse&lg_id=309", "lon": "-72.18261", "iso": "arn", "key": "arn_std", "lat": "-38.43638"}, {"name": "Araona", "family": "Tacanan,Araona-Tacana,Araona", "variety": "std", "url": "http://lingweb.eva.mpg.de/cgi-bin/ids/ids.pl?com=simple_browse&lg_id=272", "lon": "-67.72934", "iso": "aro", "key": "aro_std", "lat": "-12.42423"}, {"name": "Waorani", "family": "Language isolate", "variety": "std", "url": "http://lingweb.eva.mpg.de/cgi-bin/ids/ids.pl?com=simple_browse&lg_id=255", "lon": "-76.68295", "iso": "auc", "key": "auc_std", "lat": "-1.12312"}, {"name": "Avar (Andalal)", "family": "North Caucasian,East Caucasian,Avar-Andic,Avar", "variety": "Andalal", "url": "http://lingweb.eva.mpg.de/cgi-bin/ids/ids.pl?com=simple_browse&lg_id=28", "lon": "46.56284", "iso": "ava", "key": "ava_Andalal", "lat": "42.42226"}, {"name": "Avar (Antsukh)", "family": "North Caucasian,East Caucasian,Avar-Andic,Avar", "variety": "Antsukh", "url": "http://lingweb.eva.mpg.de/cgi-bin/ids/ids.pl?com=simple_browse&lg_id=29", "lon": "46.56284", "iso": "ava", "key": "ava_Antsukh", "lat": "42.42226"}, {"name": "Avar (Batlukh)", "family": "North Caucasian,East Caucasian,Avar-Andic,Avar", "variety": "Batlukh", "url": "http://lingweb.eva.mpg.de/cgi-bin/ids/ids.pl?com=simple_browse&lg_id=26", "lon": "46.56284", "iso": "ava", "key": "ava_Batlukh", "lat": "42.42226"}, {"name": "Avar (Hid)", "family": "North Caucasian,East Caucasian,Avar-Andic,Avar", "variety": "Hid", "url": "http://lingweb.eva.mpg.de/cgi-bin/ids/ids.pl?com=simple_browse&lg_id=27", "lon": "46.56284", "iso": "ava", "key": "ava_Hid", "lat": "42.42226"}, {"name": "Avar (Karakh)", "family": "North Caucasian,East Caucasian,Avar-Andic,Avar", "variety": "Karakh", "url": "http://lingweb.eva.mpg.de/cgi-bin/ids/ids.pl?com=simple_browse&lg_id=31", "lon": "46.56284", "iso": "ava", "key": "ava_Karakh", "lat": "42.42226"}, {"name": "Avar (Kusur)", "family": "North Caucasian,East Caucasian,Avar-Andic,Avar", "variety": "Kusur", "url": "http://lingweb.eva.mpg.de/cgi-bin/ids/ids.pl?com=simple_browse&lg_id=81", "lon": "46.56284", "iso": "ava", "key": "ava_Kusur", "lat": "42.42226"}, {"name": "Avar (Standard)", "family": "North Caucasian,East Caucasian,Avar-Andic,Avar", "variety": "Standard", "url": "http://lingweb.eva.mpg.de/cgi-bin/ids/ids.pl?com=simple_browse&lg_id=107", "lon": "46.56284", "iso": "ava", "key": "ava_Standard", "lat": "42.42226"}, {"name": "Avar (Zakataly)", "family": "North Caucasian,East Caucasian,Avar-Andic,Avar", "variety": "Zakataly", "url": "http://lingweb.eva.mpg.de/cgi-bin/ids/ids.pl?com=simple_browse&lg_id=30", "lon": "46.56284", "iso": "ava", "key": "ava_Zakataly", "lat": "42.42226"}, {"name": "Ayoreo", "family": "Zamucoan", "variety": "std", "url": "http://lingweb.eva.mpg.de/cgi-bin/ids/ids.pl?com=simple_browse&lg_id=297", "lon": "-59.57716", "iso": "ayo", "key": "ayo_std", "lat": "-20.44264"}, {"name": "Aymara, Central", "family": "Aymaran", "variety": "std", "url": "http://lingweb.eva.mpg.de/cgi-bin/ids/ids.pl?com=simple_browse&lg_id=1", "lon": "-68.31289", "iso": "ayr", "key": "ayr_std", "lat": "-18.10344"}, {"name": "Azerbaijani, South", "family": "Altaic,Turkic,Southern,Azerbaijani", "variety": "std", "url": "http://lingweb.eva.mpg.de/cgi-bin/ids/ids.pl?com=simple_browse&lg_id=1", "lon": "47.66945", "iso": "azb", "key": "azb_std", "lat": "37.8734"}, {"name": "Azerbaijani, North (Terekeme)", "family": "Altaic,Turkic,Southern,Azerbaijani", "variety": "Terekeme", "url": "http://lingweb.eva.mpg.de/cgi-bin/ids/ids.pl?com=simple_browse&lg_id=166", "lon": "47.68707", "iso": "azj", "key": "azj_Terekeme", "lat": "40.2128"}, {"name": "Nahuatl, Highland Puebla", "family": "Uto-Aztecan,Southern Uto-Aztecan,Aztecan,General Aztec,Aztec", "variety": "std", "url": "http://lingweb.eva.mpg.de/cgi-bin/ids/ids.pl?com=simple_browse&lg_id=222", "lon": "-97.55562", "iso": "azz", "key": "azz_std", "lat": "20.15536"}, {"name": "Budukh", "family": "North Caucasian,East Caucasian,Lezgic,Nuclear Lezgic,South Lezgic", "variety": "std", "url": "http://lingweb.eva.mpg.de/cgi-bin/ids/ids.pl?com=simple_browse&lg_id=63", "lon": "48.33533", "iso": "bdk", "key": "bdk_std", "lat": "41.22722"}, {"name": "Botlikh", "family": "North Caucasian,East Caucasian,Avar-Andic,Andic", "variety": "std", "url": "http://lingweb.eva.mpg.de/cgi-bin/ids/ids.pl?com=simple_browse&lg_id=36", "lon": "46.19437", "iso": "bph", "key": "bph_std", "lat": "42.7658"}, {"name": "Breton", "family": "Indo-European,Celtic,Insular,Brythonic", "variety": "std", "url": "http://lingweb.eva.mpg.de/cgi-bin/ids/ids.pl?com=simple_browse&lg_id=183", "lon": "-3.78934", "iso": "bre", "key": "bre_std", "lat": "48.24523"}, {"name": "Bulgarian", "family": "Indo-European,Slavic,South,Eastern", "variety": "std", "url": "http://lingweb.eva.mpg.de/cgi-bin/ids/ids.pl?com=simple_browse&lg_id=200", "lon": "25.48454", "iso": "bul", "key": "bul_std", "lat": "41.35608"}, {"name": "Nivacl\u00e9", "family": "Mataco-Guaicuru,Mataco", "variety": "std", "url": "http://lingweb.eva.mpg.de/cgi-bin/ids/ids.pl?com=simple_browse&lg_id=307", "lon": "-60.39113", "iso": "cag", "key": "cag_std", "lat": "-23.22323"}, {"name": "Ch\u00e1cobo", "family": "Panoan,Southern", "variety": "std", "url": "http://lingweb.eva.mpg.de/cgi-bin/ids/ids.pl?com=simple_browse&lg_id=279", "lon": "-66.71641", "iso": "cao", "key": "cao_std", "lat": "-12.13298"}, {"name": "Chipaya", "family": "Uru-Chipaya", "variety": "std", "url": "http://lingweb.eva.mpg.de/cgi-bin/ids/ids.pl?com=simple_browse&lg_id=270", "lon": "-67.89633", "iso": "cap", "key": "cap_std", "lat": "-18.73951"}, {"name": "Carib", "family": "Carib,Northern,Galibi", "variety": "std", "url": "http://wold.livingsources.org/vocabulary/79", "lon": "-63.82088", "iso": "car", "key": "car_std", "lat": "8.53667"}, {"name": "Tsiman\u00e9", "family": "Language isolate", "variety": "std", "url": "http://lingweb.eva.mpg.de/cgi-bin/ids/ids.pl?com=simple_browse&lg_id=271", "lon": "-67.83756", "iso": "cas", "key": "cas_std", "lat": "-14.64448"}, {"name": "Catalan-Valencian-Balear", "family": "Indo-European,Italic,Romance,Italo-Western,Western,Gallo-Iberian,Ibero-Romance,East Iberian", "variety": "std", "url": "http://lingweb.eva.mpg.de/cgi-bin/ids/ids.pl?com=simple_browse&lg_id=1", "lon": "1.23027", "iso": "cat", "key": "cat_std", "lat": "41.91647"}, {"name": "Cavine\u00f1a", "family": "Tacanan,Araona-Tacana,Cavinena-Tacana,Cavinena", "variety": "std", "url": "http://lingweb.eva.mpg.de/cgi-bin/ids/ids.pl?com=simple_browse&lg_id=273", "lon": "-66.62773", "iso": "cav", "key": "cav_std", "lat": "-13.35441"}, {"name": "Chachi", "family": "Barbacoan,Cayapa-Colorado", "variety": "std", "url": "http://lingweb.eva.mpg.de/cgi-bin/ids/ids.pl?com=simple_browse&lg_id=1", "lon": "-79.0508", "iso": "cbi", "key": "cbi_std", "lat": "0.71489"}, {"name": "Cashibo-Cacataibo", "family": "Panoan, Mainline, Cashibo", "variety": "std", "url": "http://lingweb.eva.mpg.de/cgi-bin/ids/ids.pl?com=simple_browse&lg_id=1", "lon": "-75.42062", "iso": "cbr", "key": "cbr_std", "lat": "-8.70232"}, {"name": "Czech", "family": "Indo-European,Slavic,West,Czech-Slovak", "variety": "std", "url": "http://lingweb.eva.mpg.de/cgi-bin/ids/ids.pl?com=simple_browse&lg_id=202", "lon": "15.37182", "iso": "ces", "key": "ces_std", "lat": "49.88641"}, {"name": "Chechen (Akkin)", "family": "North Caucasian,East Caucasian,Nakh,Chechen-Ingush", "variety": "Akkin", "url": "http://lingweb.eva.mpg.de/cgi-bin/ids/ids.pl?com=simple_browse&lg_id=317", "lon": "45.73836", "iso": "che", "key": "che_Akkin", "lat": "43.21954"}, {"name": "Chechen", "family": "North Caucasian,East Caucasian,Nakh,Chechen-Ingush", "variety": "std", "url": "http://lingweb.eva.mpg.de/cgi-bin/ids/ids.pl?com=simple_browse&lg_id=75", "lon": "45.73836", "iso": "che", "key": "che_std", "lat": "43.21954"}, {"name": "Chamalal", "family": "North Caucasian,East Caucasian,Avar-Andic,Andic", "variety": "std", "url": "http://lingweb.eva.mpg.de/cgi-bin/ids/ids.pl?com=simple_browse&lg_id=51", "lon": "45.99496", "iso": "cji", "key": "cji_std", "lat": "42.50239"}, {"name": "Chinese, Mandarin", "family": "Sino-Tibetan,Chinese", "variety": "std", "url": "http://wold.livingsources.org/vocabulary/89", "lon": "106.27701", "iso": "cmn", "key": "cmn_std", "lat": "25.92863"}, {"name": "Tsafiki", "family": "Barbacoan,Cayapa-Colorado", "variety": "std", "url": "http://lingweb.eva.mpg.de/cgi-bin/ids/ids.pl?com=simple_browse&lg_id=246", "lon": "-79.23468", "iso": "cof", "key": "cof_std", "lat": "-0.21181"}, {"name": "Cof\u00e1n", "family": "Isolate", "variety": "std", "url": "http://lingweb.eva.mpg.de/cgi-bin/ids/ids.pl?com=simple_browse&lg_id=254", "lon": "-77.06144", "iso": "con", "key": "con_std", "lat": "0.14687"}, {"name": "Seselwa Creole French", "family": "Creole,French based", "variety": "std", "url": "http://wold.livingsources.org/vocabulary/7", "lon": "55.4503", "iso": "crs", "key": "crs_std", "lat": "-4.62314"}, {"name": "Chorote, Iyojwa\u2019ja", "family": "Mataco-Guaicuru,Mataco", "variety": "std", "url": "http://lingweb.eva.mpg.de/cgi-bin/ids/ids.pl?com=simple_browse&lg_id=1", "lon": "-63.23831", "iso": "crt", "key": "crt_std", "lat": "-22.1896"}, {"name": "Chatino, Zacatepec", "family": "Oto-Manguean,Zapotecan,Chatino", "variety": "std", "url": "http://lingweb.eva.mpg.de/cgi-bin/ids/ids.pl?com=simple_browse&lg_id=223", "lon": "-97.3069", "iso": "ctz", "key": "ctz_std", "lat": "16.07998"}, {"name": "Cheq Wong", "family": "Austro-Asiatic,Mon-Khmer,Aslian,North Aslian,Chewong", "variety": "std", "url": "http://wold.livingsources.org/vocabulary/26", "lon": "102.08116", "iso": "cwg", "key": "cwg_std", "lat": "3.83331"}, {"name": "Cayubaba", "family": "Language isolate", "variety": "std", "url": "http://lingweb.eva.mpg.de/cgi-bin/ids/ids.pl?com=simple_browse&lg_id=1", "lon": "-65.48219", "iso": "cyb", "key": "cyb_std", "lat": "-13.24822"}, {"name": "Welsh", "family": "Indo-European,Celtic,Insular,Brythonic", "variety": "std", "url": "http://lingweb.eva.mpg.de/cgi-bin/ids/ids.pl?com=simple_browse&lg_id=182", "lon": "-4.22094", "iso": "cym", "key": "cym_std", "lat": "51.97481"}, {"name": "Danish", "family": "Indo-European,Germanic,North,East Scandinavian,Danish-Swedish,Danish-Riksmal,Danish", "variety": "std", "url": "http://lingweb.eva.mpg.de/cgi-bin/ids/ids.pl?com=simple_browse&lg_id=186", "lon": "9.51882", "iso": "dan", "key": "dan_std", "lat": "54.9485"}, {"name": "Dargwa (Itsari)", "family": "North Caucasian,East Caucasian,Dargi", "variety": "Itsari", "url": "http://lingweb.eva.mpg.de/cgi-bin/ids/ids.pl?com=simple_browse&lg_id=58", "lon": "47.43876", "iso": "dar", "key": "dar_Itsari", "lat": "42.42568"}, {"name": "Dargwa (Kajtak)", "family": "North Caucasian,East Caucasian,Dargi", "variety": "Kajtak", "url": "http://lingweb.eva.mpg.de/cgi-bin/ids/ids.pl?com=simple_browse&lg_id=60", "lon": "47.43876", "iso": "dar", "key": "dar_Kajtak", "lat": "42.42568"}, {"name": "Dargwa (Kubachi)", "family": "North Caucasian,East Caucasian,Dargi", "variety": "Kubachi", "url": "http://lingweb.eva.mpg.de/cgi-bin/ids/ids.pl?com=simple_browse&lg_id=59", "lon": "47.43876", "iso": "dar", "key": "dar_Kubachi", "lat": "42.42568"}, {"name": "Dargwa (Muiri)", "family": "North Caucasian,East Caucasian,Dargi", "variety": "Muiri", "url": "http://lingweb.eva.mpg.de/cgi-bin/ids/ids.pl?com=simple_browse&lg_id=164", "lon": "47.43876", "iso": "dar", "key": "dar_Muiri", "lat": "42.42568"}, {"name": "Dargwa (Standard)", "family": "North Caucasian,East Caucasian,Dargi", "variety": "Standard", "url": "http://lingweb.eva.mpg.de/cgi-bin/ids/ids.pl?com=simple_browse&lg_id=57", "lon": "47.43876", "iso": "dar", "key": "dar_Standard", "lat": "42.42568"}, {"name": "Negerhollands", "family": "Creole,Dutch based", "variety": "std", "url": "http://lingweb.eva.mpg.de/cgi-bin/ids/ids.pl?com=simple_browse&lg_id=217", "lon": "-64.89215", "iso": "dcr", "key": "dcr_std", "lat": "18.34155"}, {"name": "Dido (Mokok)", "family": "North Caucasian,East Caucasian,Tsezic,West Tsezic", "variety": "Mokok", "url": "http://lingweb.eva.mpg.de/cgi-bin/ids/ids.pl?com=simple_browse&lg_id=162", "lon": "45.80959", "iso": "ddo", "key": "ddo_Mokok", "lat": "42.26458"}, {"name": "Dido (Sagadin)", "family": "North Caucasian,East Caucasian,Tsezic,West Tsezic", "variety": "Sagadin", "url": "http://lingweb.eva.mpg.de/cgi-bin/ids/ids.pl?com=simple_browse&lg_id=55", "lon": "45.80959", "iso": "ddo", "key": "ddo_Sagadin", "lat": "42.26458"}, {"name": "German, Standard", "family": "Indo-European,Germanic,West,High German,German,Middle German,East Middle German", "variety": "std", "url": "http://lingweb.eva.mpg.de/cgi-bin/ids/ids.pl?com=simple_browse&lg_id=194", "lon": "10.45276", "iso": "deu", "key": "deu_std", "lat": "47.45546"}, {"name": "Sorbian, Lower", "family": "Indo-European,Slavic,West,Sorbian", "variety": "std", "url": "http://wold.livingsources.org/vocabulary/10", "lon": "13.9407", "iso": "dsb", "key": "dsb_std", "lat": "51.66213"}, {"name": "Greek", "family": "Indo-European,Greek,Attic", "variety": "std", "url": "http://lingweb.eva.mpg.de/cgi-bin/ids/ids.pl?com=simple_browse&lg_id=1", "lon": "23.32509", "iso": "ell", "key": "ell_std", "lat": "37.46921"}, {"name": "Ember\u00e1, Northern", "family": "Choco,Embera,Northern", "variety": "std", "url": "http://lingweb.eva.mpg.de/cgi-bin/ids/ids.pl?com=simple_browse&lg_id=247", "lon": "-78.09685", "iso": "emp", "key": "emp_std", "lat": "7.63322"}, {"name": "English", "family": "Indo-European,Germanic,West,English", "variety": "std", "url": "http://lingweb.eva.mpg.de/cgi-bin/ids/ids.pl?com=simple_browse&lg_id=190", "lon": "-2.23831", "iso": "eng", "key": "eng_std", "lat": "53.27692"}, {"name": "Estonian", "family": "Uralic,Finnic", "variety": "std", "url": "http://lingweb.eva.mpg.de/cgi-bin/ids/ids.pl?com=simple_browse&lg_id=127", "lon": "25.8136", "iso": "est", "key": "est_std", "lat": "58.72406"}, {"name": "Basque", "family": "Basque", "variety": "std", "url": "http://lingweb.eva.mpg.de/cgi-bin/ids/ids.pl?com=simple_browse&lg_id=219", "lon": "-2.07063", "iso": "eus", "key": "eus_std", "lat": "42.96804"}, {"name": "Finnish", "family": "Uralic,Finnic", "variety": "std", "url": "http://lingweb.eva.mpg.de/cgi-bin/ids/ids.pl?com=simple_browse&lg_id=128", "lon": "26.33121", "iso": "fin", "key": "fin_std", "lat": "64.22287"}, {"name": "French", "family": "Indo-European,Italic,Romance,Italo-Western,Western,Gallo-Iberian,Gallo-Romance,Gallo-Rhaetian,O\u00efl,French", "variety": "std", "url": "http://lingweb.eva.mpg.de/cgi-bin/ids/ids.pl?com=simple_browse&lg_id=171", "lon": "1.71931", "iso": "fra", "key": "fra_std", "lat": "46.77921"}, {"name": "Ghodoberi", "family": "North Caucasian,East Caucasian,Avar-Andic,Andic", "variety": "std", "url": "http://lingweb.eva.mpg.de/cgi-bin/ids/ids.pl?com=simple_browse&lg_id=38", "lon": "46.22524", "iso": "gdo", "key": "gdo_std", "lat": "42.74276"}, {"name": "Ghulfan", "family": "Nilo-Saharan,Eastern Sudanic,Eastern,Nubian,Central,Hill,Kadaru-Ghulfan", "variety": "std", "url": "http://lingweb.eva.mpg.de/cgi-bin/ids/ids.pl?com=simple_browse&lg_id=318", "lon": "29.81219", "iso": "ghl", "key": "ghl_std", "lat": "11.64319"}, {"name": "Hinukh", "family": "North Caucasian,East Caucasian,Tsezic,West Tsezic", "variety": "std", "url": "http://lingweb.eva.mpg.de/cgi-bin/ids/ids.pl?com=simple_browse&lg_id=42", "lon": "45.80638", "iso": "gin", "key": "gin_std", "lat": "42.45022"}, {"name": "Gaelic, Irish", "family": "Indo-European,Celtic,Insular,Goidelic", "variety": "std", "url": "http://lingweb.eva.mpg.de/cgi-bin/ids/ids.pl?com=simple_browse&lg_id=181", "lon": "-7.68971", "iso": "gle", "key": "gle_std", "lat": "52.00883"}, {"name": "Galician", "family": "Indo-European,Italic,Romance,Italo-Western,Western,Gallo-Iberian,Ibero-Romance,West Iberian,Portuguese-Galician", "variety": "std", "url": "http://www.logosdictionary.org/", "lon": "-8.00703", "iso": "glg", "key": "glg_std", "lat": "42.77012"}, {"name": "Wayuu", "family": "Arawakan,Maipuran,Northern Maipuran,Caribbean", "variety": "std", "url": "http://lingweb.eva.mpg.de/cgi-bin/ids/ids.pl?com=simple_browse&lg_id=1", "lon": "-72.24028", "iso": "guc", "key": "guc_std", "lat": "11.52576"}, {"name": "Gurinji", "family": "Australian,Pama-Nyungan,South-West,Ngumbin", "variety": "std", "url": "http://wold.livingsources.org/vocabulary/31", "lon": "130.37933", "iso": "gue", "key": "gue_std", "lat": "-17.03293"}, {"name": "Guaran\u00ed, Paraguayan", "family": "Tupi,Tupi-Guarani,Subgroup I", "variety": "std", "url": "http://lingweb.eva.mpg.de/cgi-bin/ids/ids.pl?com=simple_browse&lg_id=290", "lon": "-57.08816", "iso": "gug", "key": "gug_std", "lat": "-25.60551"}, {"name": "Guaran\u00ed, Eastern Bolivian", "family": "Tupi,Tupi-Guarani,Subgroup I", "variety": "std", "url": "http://lingweb.eva.mpg.de/cgi-bin/ids/ids.pl?com=simple_browse&lg_id=289", "lon": "-62.98948", "iso": "gui", "key": "gui_std", "lat": "-20.11726"}, {"name": "Ach\u00e9", "family": "Tupi,Tupi-Guarani,Subgroup I", "variety": "std", "url": "http://lingweb.eva.mpg.de/cgi-bin/ids/ids.pl?com=simple_browse&lg_id=288", "lon": "-56.46968", "iso": "guq", "key": "guq_std", "lat": "-25.58653"}, {"name": "Gawwada", "family": "Afro-Asiatic,Cushitic,East,Dullay", "variety": "std", "url": "http://wold.livingsources.org/vocabulary/3", "lon": "37.2737", "iso": "gwd", "key": "gwd_std", "lat": "5.37869"}, {"name": "Hausa", "family": "Afro-Asiatic,Chadic,West,A,A.1", "variety": "std", "url": "http://lingweb.eva.mpg.de/cgi-bin/ids/ids.pl?com=simple_browse&lg_id=220", "lon": "7.18939", "iso": "hau", "key": "hau_std", "lat": "11.91098"}, {"name": "Hawaiian", "family": "Austronesian,Malayo-Polynesian,Central-Eastern,Eastern Malayo-Polynesian,Oceanic,Central-Eastern Oceanic,Remote Oceanic,Central Pacific,East Fijian-Polynesian,Polynesian,Nuclear,East,Central,Marquesic", "variety": "std", "url": "http://lingweb.eva.mpg.de/cgi-bin/ids/ids.pl?com=simple_browse&lg_id=235", "lon": "-155.42995", "iso": "haw", "key": "haw_std", "lat": "19.62965"}, {"name": "Haida, Northern (Northern)", "family": "Na-Dene,Haida", "variety": "Northern", "url": "http://lingweb.eva.mpg.de/cgi-bin/ids/ids.pl?com=simple_browse&lg_id=227", "lon": "-132.08441", "iso": "hdn", "key": "hdn_Northern", "lat": "53.97409"}, {"name": "Hindi", "family": "Indo-European,Indo-Iranian,Indo-Aryan,Central zone,Western Hindi,Hindustani", "variety": "std", "url": "http://www.logosdictionary.org/", "lon": "79.78701", "iso": "hin", "key": "hin_std", "lat": "23.13376"}, {"name": "Hungarian", "family": "Uralic", "variety": "std", "url": "http://lingweb.eva.mpg.de/cgi-bin/ids/ids.pl?com=simple_browse&lg_id=131", "lon": "19.50894", "iso": "hun", "key": "hun_std", "lat": "46.12207"}, {"name": "Hunzib", "family": "North Caucasian,East Caucasian,Tsezic,East Tsezic", "variety": "std", "url": "http://lingweb.eva.mpg.de/cgi-bin/ids/ids.pl?com=simple_browse&lg_id=52", "lon": "46.13691", "iso": "huz", "key": "huz_std", "lat": "42.08076"}, {"name": "Armenian (Eastern)", "family": "Indo-European,Armenian", "variety": "Eastern", "url": "http://lingweb.eva.mpg.de/cgi-bin/ids/ids.pl?com=simple_browse&lg_id=206", "lon": "45.0399", "iso": "hye", "key": "hye_Eastern", "lat": "40.40121"}, {"name": "Armenian (Western)", "family": "Indo-European,Armenian", "variety": "Western", "url": "http://lingweb.eva.mpg.de/cgi-bin/ids/ids.pl?com=simple_browse&lg_id=207", "lon": "45.0399", "iso": "hye", "key": "hye_Western", "lat": "40.40121"}, {"name": "Ignaciano", "family": "Arawakan,Maipuran,Southern Maipuran,Bolivia-Parana", "variety": "std", "url": "http://lingweb.eva.mpg.de/cgi-bin/ids/ids.pl?com=simple_browse&lg_id=263", "lon": "-65.39934", "iso": "ign", "key": "ign_std", "lat": "-15.11882"}, {"name": "Indonesian", "family": "Austronesian,Malayo-Polynesian,Malayo-Sumbawan,North and East,Malayic,Malay", "variety": "std", "url": "http://wold.livingsources.org/vocabulary/27", "lon": "109.71572", "iso": "ind", "key": "ind_std", "lat": "-7.33458"}, {"name": "Iraqw", "family": "Afro-Asiatic,Cushitic,South", "variety": "std", "url": "http://wold.livingsources.org/vocabulary/2", "lon": "35.29393", "iso": "irk", "key": "irk_std", "lat": "-4.19948"}, {"name": "Italian", "family": "Indo-European,Italic,Romance,Italo-Western,Italo-Dalmatian", "variety": "std", "url": "http://lingweb.eva.mpg.de/cgi-bin/ids/ids.pl?com=simple_browse&lg_id=170", "lon": "12.97622", "iso": "ita", "key": "ita_std", "lat": "42.609"}, {"name": "Itonama", "family": "Language isolate", "variety": "std", "url": "http://lingweb.eva.mpg.de/cgi-bin/ids/ids.pl?com=simple_browse&lg_id=284", "lon": "-64.35748", "iso": "ito", "key": "ito_std", "lat": "-12.80431"}, {"name": "Judeo-Tat", "family": "Indo-European,Indo-Iranian,Iranian,Western,Southwestern,Tat", "variety": "std", "url": "http://lingweb.eva.mpg.de/cgi-bin/ids/ids.pl?com=simple_browse&lg_id=1", "lon": "35.0694", "iso": "jdt", "key": "jdt_std", "lat": "31.76096"}, {"name": "Japanese", "family": "Japonic", "variety": "std", "url": "http://wold.livingsources.org/vocabulary/21", "lon": "136.46904", "iso": "jpn", "key": "jpn_std", "lat": "35.35084"}, {"name": "Hupd\u00eb", "family": "Maku", "variety": "std", "url": "http://wold.livingsources.org/vocabulary/39", "lon": "-69.98387", "iso": "jup", "key": "jup_std", "lat": "0.46252"}, {"name": "Bezhta", "family": "North Caucasian,East Caucasian,Tsezic,East Tsezic", "variety": "std", "url": "http://lingweb.eva.mpg.de/cgi-bin/ids/ids.pl?com=simple_browse&lg_id=160", "lon": "46.03319", "iso": "kap", "key": "kap_std", "lat": "42.1206"}, {"name": "Khanty", "family": "Uralic", "variety": "std", "url": "http://lingweb.eva.mpg.de/cgi-bin/ids/ids.pl?com=simple_browse&lg_id=135", "lon": "66.12177", "iso": "kca", "key": "kca_std", "lat": "62.43083"}, {"name": "Q\u2019eqchi\u2019", "family": "Mayan,Quichean-Mamean,Greater Quichean,Kekchi", "variety": "std", "url": "http://wold.livingsources.org/vocabulary/34", "lon": "-89.76169", "iso": "kek", "key": "kek_std", "lat": "15.95051"}, {"name": "Ket", "family": "Yeniseian", "variety": "std", "url": "http://wold.livingsources.org/vocabulary/18", "lon": "87.54663", "iso": "ket", "key": "ket_std", "lat": "63.75506"}, {"name": "Kaingang", "family": "Macro-Ge,Ge-Kaingang", "variety": "std", "url": "http://lingweb.eva.mpg.de/cgi-bin/ids/ids.pl?com=simple_browse&lg_id=294", "lon": "-52.53937", "iso": "kgp", "key": "kgp_std", "lat": "-27.76708"}, {"name": "Khvarshi (Inxokvari)", "family": "North Caucasian,East Caucasian,Tsezic,West Tsezic", "variety": "Inxokvari", "url": "http://lingweb.eva.mpg.de/cgi-bin/ids/ids.pl?com=simple_browse&lg_id=54", "lon": "45.99765", "iso": "khv", "key": "khv_Inxokvari", "lat": "42.27434"}, {"name": "Khvarshi (Khvarshi)", "family": "North Caucasian,East Caucasian,Tsezic,West Tsezic", "variety": "Khvarshi", "url": "http://lingweb.eva.mpg.de/cgi-bin/ids/ids.pl?com=simple_browse&lg_id=41", "lon": "45.99765", "iso": "khv", "key": "khv_Khvarshi", "lat": "42.27434"}, {"name": "Kilivila", "family": "Austronesian,Malayo-Polynesian,Central-Eastern,Eastern Malayo-Polynesian,Oceanic,Western Oceanic,Papuan Tip,Peripheral,Kilivila-Louisiades,Kilivila", "variety": "std", "url": "http://lingweb.eva.mpg.de/cgi-bin/ids/ids.pl?com=simple_browse&lg_id=1", "lon": "151.0724", "iso": "kij", "key": "kij_std", "lat": "-8.72574"}, {"name": "Kanuri, Central", "family": "Nilo-Saharan,Saharan,Western,Kanuri", "variety": "std", "url": "http://wold.livingsources.org/vocabulary/5", "lon": "12.81894", "iso": "knc", "key": "knc_std", "lat": "12.27421"}, {"name": "Katuk\u00edna, Panoan", "family": "Panoan,Southeastern", "variety": "std", "url": "http://lingweb.eva.mpg.de/cgi-bin/ids/ids.pl?com=simple_browse&lg_id=1", "lon": "-71.56151", "iso": "knt", "key": "knt_std", "lat": "-7.97456"}, {"name": "Karata (Tokitin)", "family": "North Caucasian,East Caucasian,Avar-Andic,Andic", "variety": "Tokitin", "url": "http://lingweb.eva.mpg.de/cgi-bin/ids/ids.pl?com=simple_browse&lg_id=40", "lon": "46.31511", "iso": "kpt", "key": "kpt_Tokitin", "lat": "42.65005"}, {"name": "Karata", "family": "North Caucasian,East Caucasian,Avar-Andic,Andic", "variety": "std", "url": "http://lingweb.eva.mpg.de/cgi-bin/ids/ids.pl?com=simple_browse&lg_id=39", "lon": "46.31511", "iso": "kpt", "key": "kpt_std", "lat": "42.65005"}, {"name": "Komi-Zyrian", "family": "Uralic,Permian,Komi", "variety": "std", "url": "http://lingweb.eva.mpg.de/cgi-bin/ids/ids.pl?com=simple_browse&lg_id=1", "lon": "54.94599", "iso": "kpv", "key": "kpv_std", "lat": "64.05268"}, {"name": "Kumyk", "family": "Altaic,Turkic,Western,Ponto-Caspian", "variety": "std", "url": "http://lingweb.eva.mpg.de/cgi-bin/ids/ids.pl?com=simple_browse&lg_id=72", "lon": "47.32625", "iso": "kum", "key": "kum_std", "lat": "42.88799"}, {"name": "Kunza", "family": "Unclassified", "variety": "std", "url": "http://lingweb.eva.mpg.de/cgi-bin/ids/ids.pl?com=simple_browse&lg_id=308", "lon": "-71.0453", "iso": "kuz", "key": "kuz_std", "lat": "-31.67939"}, {"name": "Bagvalal", "family": "North Caucasian,East Caucasian,Avar-Andic,Andic", "variety": "std", "url": "http://lingweb.eva.mpg.de/cgi-bin/ids/ids.pl?com=simple_browse&lg_id=1", "lon": "46.1041", "iso": "kva", "key": "kva_std", "lat": "42.39664"}, {"name": "Karok", "family": "Hokan,Northern,Karok-Shasta", "variety": "std", "url": "http://lingweb.eva.mpg.de/cgi-bin/ids/ids.pl?com=simple_browse&lg_id=224", "lon": "-123.31534", "iso": "kyh", "key": "kyh_std", "lat": "41.82283"}, {"name": "Latvian", "family": "Indo-European,Baltic,Eastern", "variety": "std", "url": "http://lingweb.eva.mpg.de/cgi-bin/ids/ids.pl?com=simple_browse&lg_id=197", "lon": "24.60772", "iso": "lav", "key": "lav_std", "lat": "57.1435"}, {"name": "Lak", "family": "North Caucasian,East Caucasian,Lak", "variety": "std", "url": "http://lingweb.eva.mpg.de/cgi-bin/ids/ids.pl?com=simple_browse&lg_id=56", "lon": "47.0809", "iso": "lbe", "key": "lbe_std", "lat": "42.13275"}, {"name": "Lengua", "family": "Mascoian", "variety": "std", "url": "http://lingweb.eva.mpg.de/cgi-bin/ids/ids.pl?com=simple_browse&lg_id=300", "lon": "-58.90528", "iso": "leg", "key": "leg_std", "lat": "-22.65586"}, {"name": "Lezgi (Kuba)", "family": "North Caucasian,East Caucasian,Lezgic,Nuclear Lezgic,East Lezgic", "variety": "Kuba", "url": "http://lingweb.eva.mpg.de/cgi-bin/ids/ids.pl?com=simple_browse&lg_id=165", "lon": "47.89507", "iso": "lez", "key": "lez_Kuba", "lat": "41.51572"}, {"name": "Lezgi (Mikrakh)", "family": "North Caucasian,East Caucasian,Lezgic,Nuclear Lezgic,East Lezgic", "variety": "Mikrakh", "url": "http://lingweb.eva.mpg.de/cgi-bin/ids/ids.pl?com=simple_browse&lg_id=65", "lon": "47.89507", "iso": "lez", "key": "lez_Mikrakh", "lat": "41.51572"}, {"name": "Lezgi", "family": "North Caucasian,East Caucasian,Lezgic,Nuclear Lezgic,East Lezgic", "variety": "std", "url": "http://lingweb.eva.mpg.de/cgi-bin/ids/ids.pl?com=simple_browse&lg_id=64", "lon": "47.89507", "iso": "lez", "key": "lez_std", "lat": "41.51572"}, {"name": "Lithuanian", "family": "Indo-European,Baltic,Eastern", "variety": "std", "url": "http://lingweb.eva.mpg.de/cgi-bin/ids/ids.pl?com=simple_browse&lg_id=196", "lon": "23.96007", "iso": "lit", "key": "lit_std", "lat": "55.14291"}, {"name": "Macushi", "family": "Carib,Northern,East-West Guiana,Macushi-Kapon,Macushi", "variety": "std", "url": "http://lingweb.eva.mpg.de/cgi-bin/ids/ids.pl?com=simple_browse&lg_id=173", "lon": "-60.21955", "iso": "mbc", "key": "mbc_std", "lat": "4.36027"}, {"name": "Maka", "family": "Mataco-Guaicuru,Mataco", "variety": "std", "url": "http://lingweb.eva.mpg.de/cgi-bin/ids/ids.pl?com=simple_browse&lg_id=305", "lon": "-57.36935", "iso": "mca", "key": "mca_std", "lat": "-25.01186"}, {"name": "Ese (Huarayo)", "family": "Trans-New Guinea,Southeast Papuan,Koiarian,Baraic", "variety": "Huarayo", "url": "http://lingweb.eva.mpg.de/cgi-bin/ids/ids.pl?com=simple_browse&lg_id=1", "lon": "148.37594", "iso": "mcq", "key": "mcq_Huarayo", "lat": "-9.09451"}, {"name": "Ese", "family": "Trans-New Guinea,Southeast Papuan,Koiarian,Baraic", "variety": "std", "url": "http://lingweb.eva.mpg.de/cgi-bin/ids/ids.pl?com=simple_browse&lg_id=1", "lon": "148.37594", "iso": "mcq", "key": "mcq_std", "lat": "-9.09451"}, {"name": "Mari, Meadow", "family": "Uralic,Mari", "variety": "std", "url": "http://lingweb.eva.mpg.de/cgi-bin/ids/ids.pl?com=simple_browse&lg_id=1", "lon": "48.40502", "iso": "mhr", "key": "mhr_std", "lat": "55.8307"}, {"name": "Mansi", "family": "Uralic", "variety": "std", "url": "http://lingweb.eva.mpg.de/cgi-bin/ids/ids.pl?com=simple_browse&lg_id=146", "lon": "61.34397", "iso": "mns", "key": "mns_std", "lat": "64.41179"}, {"name": "Mocov\u00ed", "family": "Mataco-Guaicuru,Guaicuruan", "variety": "std", "url": "http://lingweb.eva.mpg.de/cgi-bin/ids/ids.pl?com=simple_browse&lg_id=301", "lon": "-60.41448", "iso": "moc", "key": "moc_std", "lat": "-28.09699"}, {"name": "Maori", "family": "Austronesian,Malayo-Polynesian,Central-Eastern,Eastern Malayo-Polynesian,Oceanic,Central-Eastern Oceanic,Remote Oceanic,Central Pacific,East Fijian-Polynesian,Polynesian,Nuclear,East,Central,Tahitic", "variety": "std", "url": "http://lingweb.eva.mpg.de/cgi-bin/ids/ids.pl?com=simple_browse&lg_id=236", "lon": "176.54055", "iso": "mri", "key": "mri_std", "lat": "-38.28814"}, {"name": "Marquesan, North", "family": "Austronesian,Malayo-Polynesian,Central-Eastern,Eastern Malayo-Polynesian,Oceanic,Central-Eastern Oceanic,Remote Oceanic,Central Pacific,East Fijian-Polynesian,Polynesian,Nuclear,East,Central,Marquesic", "variety": "std", "url": "http://lingweb.eva.mpg.de/cgi-bin/ids/ids.pl?com=simple_browse&lg_id=1", "lon": "-140.10792", "iso": "mrq", "key": "mrq_std", "lat": "-8.89412"}, {"name": "Miao, White", "family": "Hmong-Mien,Hmongic,Chuanqiandian", "variety": "std", "url": "http://wold.livingsources.org/vocabulary/25", "lon": "104.8952", "iso": "mww", "key": "mww_std", "lat": "26.99096"}, {"name": "Erzya", "family": "Uralic,Mordvin", "variety": "std", "url": "http://lingweb.eva.mpg.de/cgi-bin/ids/ids.pl?com=simple_browse&lg_id=126", "lon": "45.3901", "iso": "myv", "key": "myv_std", "lat": "52.85479"}, {"name": "Wich\u00ed Lhamt\u00e9s G\u00fcisnay", "family": "Mataco-Guaicuru,Mataco", "variety": "std", "url": "http://wold.livingsources.org/vocabulary/40", "lon": "-62.17574", "iso": "mzh", "key": "mzh_std", "lat": "-23.16326"}, {"name": "Movima", "family": "Language isolate", "variety": "std", "url": "http://lingweb.eva.mpg.de/cgi-bin/ids/ids.pl?com=simple_browse&lg_id=285", "lon": "-65.63482", "iso": "mzp", "key": "mzp_std", "lat": "-13.81152"}, {"name": "Dutch", "family": "Indo-European,Germanic,West,Low Saxon-Low Franconian,Low Franconian", "variety": "std", "url": "http://lingweb.eva.mpg.de/cgi-bin/ids/ids.pl?com=simple_browse&lg_id=191", "lon": "5.332", "iso": "nld", "key": "nld_std", "lat": "51.77029"}, {"name": "Manangba", "family": "Sino-Tibetan,Tibeto-Burman,Himalayish,Tibeto-Kanauri,Tibetic,Tamangic", "variety": "std", "url": "http://wold.livingsources.org/vocabulary/17", "lon": "84.05154", "iso": "nmm", "key": "nmm_std", "lat": "28.64158"}, {"name": "Nogai", "family": "Altaic,Turkic,Western,Aralo-Caspian", "variety": "std", "url": "http://lingweb.eva.mpg.de/cgi-bin/ids/ids.pl?com=simple_browse&lg_id=73", "lon": "46.66178", "iso": "nog", "key": "nog_std", "lat": "43.59168"}, {"name": "Nootka", "family": "Wakashan,Southern", "variety": "std", "url": "http://lingweb.eva.mpg.de/cgi-bin/ids/ids.pl?com=simple_browse&lg_id=230", "lon": "-126.08614", "iso": "noo", "key": "noo_std", "lat": "49.62122"}, {"name": "Ona", "family": "Chon", "variety": "std", "url": "http://lingweb.eva.mpg.de/cgi-bin/ids/ids.pl?com=simple_browse&lg_id=1", "lon": "-69.59363", "iso": "ona", "key": "ona_std", "lat": "-51.63512"}, {"name": "Oroqen", "family": "Altaic,Tungusic,Northern,Evenki", "variety": "std", "url": "http://wold.livingsources.org/vocabulary/20", "lon": "125.01685", "iso": "orh", "key": "orh_std", "lat": "50.63193"}, {"name": "Otomi, Mezquital", "family": "Oto-Manguean,Otopamean,Otomian,Otomi", "variety": "std", "url": "http://wold.livingsources.org/vocabulary/35", "lon": "-99.55642", "iso": "ote", "key": "ote_std", "lat": "20.22745"}, {"name": "Wayampi", "family": "Tupi,Tupi-Guarani,Subgroup VIII", "variety": "std", "url": "http://lingweb.eva.mpg.de/cgi-bin/ids/ids.pl?com=simple_browse&lg_id=292", "lon": "-52.95521", "iso": "oym", "key": "oym_std", "lat": "2.25217"}, {"name": "P\u00e1ez", "family": "Language isolate", "variety": "std", "url": "http://lingweb.eva.mpg.de/cgi-bin/ids/ids.pl?com=simple_browse&lg_id=244", "lon": "-76.31254", "iso": "pbb", "key": "pbb_std", "lat": "2.61516"}, {"name": "E\u2019\u00f1apa Woromaipu", "family": "Carib,Northern,Western Guiana", "variety": "std", "url": "http://lingweb.eva.mpg.de/cgi-bin/ids/ids.pl?com=simple_browse&lg_id=1", "lon": "-65.84825", "iso": "pbh", "key": "pbh_std", "lat": "6.95035"}, {"name": "Farsi, Western", "family": "Indo-European,Indo-Iranian,Iranian,Western,Southwestern,Persian", "variety": "std", "url": "http://lingweb.eva.mpg.de/cgi-bin/ids/ids.pl?com=simple_browse&lg_id=214", "lon": "54.8362", "iso": "pes", "key": "pes_std", "lat": "30.5476"}, {"name": "Pilag\u00e1", "family": "Mataco-Guaicuru,Guaicuruan", "variety": "std", "url": "http://lingweb.eva.mpg.de/cgi-bin/ids/ids.pl?com=simple_browse&lg_id=302", "lon": "-60.15372", "iso": "plg", "key": "plg_std", "lat": "-25.00585"}, {"name": "Polci", "family": "Afro-Asiatic,Chadic,West,B,B.3,Zaar Proper", "variety": "std", "url": "http://lingweb.eva.mpg.de/cgi-bin/ids/ids.pl?com=simple_browse&lg_id=221", "lon": "9.53362", "iso": "plj", "key": "plj_std", "lat": "10.02581"}, {"name": "Malagasy, Plateau", "family": "Austronesian,Malayo-Polynesian,Greater Barito,East,Malagasy", "variety": "std", "url": "http://wold.livingsources.org/vocabulary/28", "lon": "47.12111", "iso": "plt", "key": "plt_std", "lat": "-19.59065"}, {"name": "Tuamotuan", "family": "Austronesian,Malayo-Polynesian,Central-Eastern,Eastern Malayo-Polynesian,Oceanic,Central-Eastern Oceanic,Remote Oceanic,Central Pacific,East Fijian-Polynesian,Polynesian,Nuclear,East,Central,Tahitic", "variety": "std", "url": "http://lingweb.eva.mpg.de/cgi-bin/ids/ids.pl?com=simple_browse&lg_id=241", "lon": "-140.6576", "iso": "pmt", "key": "pmt_std", "lat": "-21.70902"}, {"name": "Polish", "family": "Indo-European,Slavic,West,Lechitic", "variety": "std", "url": "http://lingweb.eva.mpg.de/cgi-bin/ids/ids.pl?com=simple_browse&lg_id=203", "lon": "19.13688", "iso": "pol", "key": "pol_std", "lat": "51.87823"}, {"name": "Portuguese", "family": "Indo-European,Italic,Romance,Italo-Western,Western,Gallo-Iberian,Ibero-Romance,West Iberian,Portuguese-Galician", "variety": "std", "url": "http://lingweb.eva.mpg.de/cgi-bin/ids/ids.pl?com=simple_browse&lg_id=178", "lon": "-7.83932", "iso": "por", "key": "por_std", "lat": "39.44108"}, {"name": "Puelche", "family": "Language isolate", "variety": "std", "url": "http://lingweb.eva.mpg.de/cgi-bin/ids/ids.pl?com=simple_browse&lg_id=312", "lon": "-62.94127", "iso": "pue", "key": "pue_std", "lat": "-36.63757"}, {"name": "Puinave", "family": "Isolate", "variety": "std", "url": "http://lingweb.eva.mpg.de/cgi-bin/ids/ids.pl?com=simple_browse&lg_id=249", "lon": "-67.96124", "iso": "pui", "key": "pui_std", "lat": "3.88056"}, {"name": "Quichua, Imbabura Highland", "family": "Quechuan,Quechua II,B", "variety": "std", "url": "http://wold.livingsources.org/vocabulary/37", "lon": "-78.37286", "iso": "qvi", "key": "qvi_std", "lat": "0.31776"}, {"name": "Rapa", "family": "Austronesian,Malayo-Polynesian,Central-Eastern,Eastern Malayo-Polynesian,Oceanic,Central-Eastern Oceanic,Remote Oceanic,Central Pacific,East Fijian-Polynesian,Polynesian,Nuclear,East,Central", "variety": "std", "url": "http://lingweb.eva.mpg.de/cgi-bin/ids/ids.pl?com=simple_browse&lg_id=1", "lon": "-144.33752", "iso": "ray", "key": "ray_std", "lat": "-27.63043"}, {"name": "Romagnol", "family": "Indo-European, Italic, Romance, Italo-Western, Western, Gallo-Iberian, Gallo-Romance, Gallo-Italian", "variety": "std", "url": "http://www.logosdictionary.org/", "lon": "12.203529", "iso": "rgn", "key": "rgn_std", "lat": "44.418360"}, {"name": "Tarifit", "family": "Afro-Asiatic,Berber,Northern,Zenati,Riff", "variety": "std", "url": "http://wold.livingsources.org/vocabulary/6", "lon": "-3.40582", "iso": "rif", "key": "rif_std", "lat": "34.81533"}, {"name": "Romani, Vlax", "family": "Indo-European,Indo-Iranian,Indo-Aryan,Central zone,Romani,Vlax", "variety": "std", "url": "http://lingweb.eva.mpg.de/cgi-bin/ids/ids.pl?com=simple_browse&lg_id=1", "lon": "25.76637", "iso": "rmy", "key": "rmy_std", "lat": "44.12793"}, {"name": "Romanian", "family": "Indo-European,Italic,Romance,Eastern", "variety": "std", "url": "http://wold.livingsources.org/vocabulary/8", "lon": "24.97773", "iso": "ron", "key": "ron_std", "lat": "45.73279"}, {"name": "Rotuman", "family": "Austronesian,Malayo-Polynesian,Central-Eastern,Eastern Malayo-Polynesian,Oceanic,Central-Eastern Oceanic,Remote Oceanic,Central Pacific,West Fijian-Rotuman,Rotuman", "variety": "std", "url": "http://lingweb.eva.mpg.de/cgi-bin/ids/ids.pl?com=simple_browse&lg_id=239", "lon": "177.06614", "iso": "rtm", "key": "rtm_std", "lat": "-12.50082"}, {"name": "Russian", "family": "Indo-European,Slavic,East", "variety": "std", "url": "http://lingweb.eva.mpg.de/cgi-bin/ids/ids.pl?com=simple_browse&lg_id=204", "lon": "84.43421", "iso": "rus", "key": "rus_std", "lat": "50.83934"}, {"name": "Rutul", "family": "North Caucasian,East Caucasian,Lezgic,Nuclear Lezgic,West Lezgic", "variety": "std", "url": "http://lingweb.eva.mpg.de/cgi-bin/ids/ids.pl?com=simple_browse&lg_id=66", "lon": "47.32436", "iso": "rut", "key": "rut_std", "lat": "41.61866"}, {"name": "Sanapan\u00e1 (Enlhet)", "family": "Mascoian", "variety": "Enlhet", "url": "http://lingweb.eva.mpg.de/cgi-bin/ids/ids.pl?com=simple_browse&lg_id=299", "lon": "-58.90698", "iso": "sap", "key": "sap_Enlhet", "lat": "-22.11454"}, {"name": "Sanapan\u00e1 (Standard)", "family": "Mascoian", "variety": "Standard", "url": "http://lingweb.eva.mpg.de/cgi-bin/ids/ids.pl?com=simple_browse&lg_id=1", "lon": "-58.90698", "iso": "sap", "key": "sap_Standard", "lat": "-22.11454"}, {"name": "Seri", "family": "Language isolate", "variety": "std", "url": "http://lingweb.eva.mpg.de/cgi-bin/ids/ids.pl?com=simple_browse&lg_id=225", "lon": "-112.38366", "iso": "sei", "key": "sei_std", "lat": "28.98767"}, {"name": "Selkup", "family": "Uralic,Samoyed", "variety": "std", "url": "http://lingweb.eva.mpg.de/cgi-bin/ids/ids.pl?com=simple_browse&lg_id=151", "lon": "82.30036", "iso": "sel", "key": "sel_std", "lat": "59.94093"}, {"name": "Ninam", "family": "Yanomam", "variety": "std", "url": "http://lingweb.eva.mpg.de/cgi-bin/ids/ids.pl?com=simple_browse&lg_id=252", "lon": "-62.50232", "iso": "shb", "key": "shb_std", "lat": "3.61595"}, {"name": "Shipibo-Conibo", "family": "Panoan,North-Central", "variety": "std", "url": "http://lingweb.eva.mpg.de/cgi-bin/ids/ids.pl?com=simple_browse&lg_id=281", "lon": "-74.82192", "iso": "shp", "key": "shp_std", "lat": "-7.17105"}, {"name": "Epena", "family": "Choco,Embera,Southern", "variety": "std", "url": "http://lingweb.eva.mpg.de/cgi-bin/ids/ids.pl?com=simple_browse&lg_id=248", "lon": "-77.19119", "iso": "sja", "key": "sja_std", "lat": "2.87807"}, {"name": "Saami, Kildin", "family": "Uralic,Sami,Eastern", "variety": "std", "url": "http://wold.livingsources.org/vocabulary/14", "lon": "35.83479", "iso": "sjd", "key": "sjd_std", "lat": "68.21579"}, {"name": "Saami, North", "family": "Uralic,Sami,Western,Northern", "variety": "std", "url": "http://lingweb.eva.mpg.de/cgi-bin/ids/ids.pl?com=simple_browse&lg_id=143", "lon": "20.12405", "iso": "sme", "key": "sme_std", "lat": "69.29134"}, {"name": "Siona", "family": "Tucanoan,Western Tucanoan,Northern,Siona-Secoya", "variety": "std", "url": "http://lingweb.eva.mpg.de/cgi-bin/ids/ids.pl?com=simple_browse&lg_id=256", "lon": "-75.89759", "iso": "snn", "key": "snn_std", "lat": "0.32107"}, {"name": "Spanish", "family": "Indo-European,Italic,Romance,Italo-Western,Western,Gallo-Iberian,Ibero-Romance,West Iberian,Castilian", "variety": "std", "url": "http://lingweb.eva.mpg.de/cgi-bin/ids/ids.pl?com=simple_browse&lg_id=176", "lon": "-2.98782", "iso": "spa", "key": "spa_std", "lat": "40.0288"}, {"name": "Sardinian, Logudorese", "family": "Indo-European,Italic,Romance,Southern,Sardinian", "variety": "std", "url": "http://lingweb.eva.mpg.de/cgi-bin/ids/ids.pl?com=simple_browse&lg_id=1", "lon": "9.09957", "iso": "src", "key": "src_std", "lat": "40.49001"}, {"name": "Saramaccan", "family": "Creole,English based", "variety": "std", "url": "http://wold.livingsources.org/vocabulary/36", "lon": "-55.67555", "iso": "srm", "key": "srm_std", "lat": "4.56627"}, {"name": "Sirion\u00f3", "family": "Tupi,Tupi-Guarani,Subgroup II", "variety": "std", "url": "http://lingweb.eva.mpg.de/cgi-bin/ids/ids.pl?com=simple_browse&lg_id=291", "lon": "-63.9688", "iso": "srq", "key": "srq_std", "lat": "-15.52979"}, {"name": "Swedish", "family": "Indo-European,Germanic,North,East Scandinavian,Danish-Swedish,Swedish", "variety": "std", "url": "http://lingweb.eva.mpg.de/cgi-bin/ids/ids.pl?com=simple_browse&lg_id=187", "lon": "17.615", "iso": "swe", "key": "swe_std", "lat": "59.00805"}, {"name": "Swahili", "family": "Niger-Congo,Atlantic-Congo,Volta-Congo,Benue-Congo,Bantoid,Southern,Narrow Bantu,Central,G,Swahili (G.40)", "variety": "std", "url": "http://wold.livingsources.org/vocabulary/1", "lon": "39.3822", "iso": "swh", "key": "swh_std", "lat": "-6.3374"}, {"name": "Tabassaran (Northern)", "family": "North Caucasian,East Caucasian,Lezgic,Nuclear Lezgic,East Lezgic", "variety": "Northern", "url": "http://lingweb.eva.mpg.de/cgi-bin/ids/ids.pl?com=simple_browse&lg_id=67", "lon": "47.83791", "iso": "tab", "key": "tab_Northern", "lat": "42.01976"}, {"name": "Tabassaran (Southern)", "family": "North Caucasian,East Caucasian,Lezgic,Nuclear Lezgic,East Lezgic", "variety": "Southern", "url": "http://lingweb.eva.mpg.de/cgi-bin/ids/ids.pl?com=simple_browse&lg_id=68", "lon": "47.83791", "iso": "tab", "key": "tab_Southern", "lat": "42.01976"}, {"name": "Takia", "family": "Austronesian,Malayo-Polynesian,Central-Eastern,Eastern Malayo-Polynesian,Oceanic,Western Oceanic,North New Guinea,Ngero-Vitiaz,Vitiaz,Bel,Nuclear Bel,Northern", "variety": "std", "url": "http://wold.livingsources.org/vocabulary/29", "lon": "145.97454", "iso": "tbc", "key": "tbc_std", "lat": "-4.69057"}, {"name": "Tehuelche", "family": "Chon", "variety": "std", "url": "http://lingweb.eva.mpg.de/cgi-bin/ids/ids.pl?com=simple_browse&lg_id=310", "lon": "-68.32346", "iso": "teh", "key": "teh_std", "lat": "-47.57963"}, {"name": "Thai", "family": "Tai-Kadai,Kam-Tai,Be-Tai,Tai-Sek,Tai,Southwestern,East Central,Chiang Saeng", "variety": "std", "url": "http://wold.livingsources.org/vocabulary/23", "lon": "100.75985", "iso": "tha", "key": "tha_std", "lat": "14.49256"}, {"name": "Tindi", "family": "North Caucasian,East Caucasian,Avar-Andic,Andic", "variety": "std", "url": "http://lingweb.eva.mpg.de/cgi-bin/ids/ids.pl?com=simple_browse&lg_id=50", "lon": "45.92268", "iso": "tin", "key": "tin_std", "lat": "42.33164"}, {"name": "Tsakhur", "family": "North Caucasian,East Caucasian,Lezgic,Nuclear Lezgic,West Lezgic", "variety": "std", "url": "http://lingweb.eva.mpg.de/cgi-bin/ids/ids.pl?com=simple_browse&lg_id=70", "lon": "46.88585", "iso": "tkr", "key": "tkr_std", "lat": "41.59156"}, {"name": "Tlingit", "family": "Na-Dene,Nuclear Na-Dene,Tlingit", "variety": "std", "url": "http://lingweb.eva.mpg.de/cgi-bin/ids/ids.pl?com=simple_browse&lg_id=228", "lon": "-135.65361", "iso": "tli", "key": "tli_std", "lat": "59.0553"}, {"name": "Tacana", "family": "Tacanan,Araona-Tacana,Cavinena-Tacana,Tacana Proper", "variety": "std", "url": "http://lingweb.eva.mpg.de/cgi-bin/ids/ids.pl?com=simple_browse&lg_id=276", "lon": "-68.04056", "iso": "tna", "key": "tna_std", "lat": "-13.39249"}, {"name": "Toba", "family": "Mataco-Guaicuru,Guaicuruan", "variety": "std", "url": "http://lingweb.eva.mpg.de/cgi-bin/ids/ids.pl?com=simple_browse&lg_id=314", "lon": "-59.14285", "iso": "tob", "key": "tob_std", "lat": "-26.46903"}, {"name": "Tongan", "family": "Austronesian,Malayo-Polynesian,Central-Eastern,Eastern Malayo-Polynesian,Oceanic,Central-Eastern Oceanic,Remote Oceanic,Central Pacific,East Fijian-Polynesian,Polynesian,Tongic", "variety": "std", "url": "http://lingweb.eva.mpg.de/cgi-bin/ids/ids.pl?com=simple_browse&lg_id=240", "lon": "-175.196", "iso": "ton", "key": "ton_std", "lat": "-21.19511"}, {"name": "Trumai", "family": "Language isolate", "variety": "std", "url": "http://lingweb.eva.mpg.de/cgi-bin/ids/ids.pl?com=simple_browse&lg_id=1", "lon": "-53.5717", "iso": "tpy", "key": "tpy_std", "lat": "-11.81195"}, {"name": "Trinitario", "family": "Arawakan,Maipuran,Southern Maipuran,Bolivia-Parana", "variety": "std", "url": "http://lingweb.eva.mpg.de/cgi-bin/ids/ids.pl?com=simple_browse&lg_id=265", "lon": "-65.40956", "iso": "trn", "key": "trn_std", "lat": "-15.33313"}, {"name": "Tsimshian", "family": "Penutian,Tsimshian", "variety": "std", "url": "http://lingweb.eva.mpg.de/cgi-bin/ids/ids.pl?com=simple_browse&lg_id=229", "lon": "-130.38016", "iso": "tsi", "key": "tsi_std", "lat": "54.40812"}, {"name": "Tuyuca", "family": "Tucanoan,Eastern Tucanoan,Central,Bara", "variety": "std", "url": "http://lingweb.eva.mpg.de/cgi-bin/ids/ids.pl?com=simple_browse&lg_id=257", "lon": "-70.11861", "iso": "tue", "key": "tue_std", "lat": "0.51905"}, {"name": "Tzotzil, Zinacant\u00e1n", "family": "Mayan,Cholan-Tzeltalan,Tzeltalan", "variety": "std", "url": "http://wold.livingsources.org/vocabulary/33", "lon": "-92.73881", "iso": "tzz", "key": "tzz_std", "lat": "16.63623"}, {"name": "Udi", "family": "North Caucasian,East Caucasian,Lezgic,Udi", "variety": "std", "url": "http://lingweb.eva.mpg.de/cgi-bin/ids/ids.pl?com=simple_browse&lg_id=80", "lon": "47.7236", "iso": "udi", "key": "udi_std", "lat": "40.9"}, {"name": "Udmurt", "family": "Uralic,Permian", "variety": "std", "url": "http://lingweb.eva.mpg.de/cgi-bin/ids/ids.pl?com=simple_browse&lg_id=159", "lon": "52.63548", "iso": "udm", "key": "udm_std", "lat": "56.12921"}, {"name": "Venetian", "family": "Indo-European,Italic,Romance,Italo-Western,Western,Gallo-Iberian,Gallo-Romance,Gallo-Italian", "variety": "std", "url": "http://www.logosdictionary.org/", "lon": "12.19705", "iso": "vec", "key": "vec_std", "lat": "45.50285"}, {"name": "Vietnamese", "family": "Austro-Asiatic,Mon-Khmer,Viet-Muong,Vietnamese", "variety": "std", "url": "http://wold.livingsources.org/vocabulary/24", "lon": "106.91747", "iso": "vie", "key": "vie_std", "lat": "17.11945"}, {"name": "Wapishana", "family": "Arawakan,Maipuran,Northern Maipuran,Wapishanan", "variety": "std", "url": "http://lingweb.eva.mpg.de/cgi-bin/ids/ids.pl?com=simple_browse&lg_id=266", "lon": "-59.33072", "iso": "wap", "key": "wap_std", "lat": "2.69278"}, {"name": "Waur\u00e1", "family": "Arawakan,Maipuran,Central Maipuran", "variety": "std", "url": "http://lingweb.eva.mpg.de/cgi-bin/ids/ids.pl?com=simple_browse&lg_id=267", "lon": "-53.69711", "iso": "wau", "key": "wau_std", "lat": "-13.29598"}, {"name": "Waiwai", "family": "Carib,Northern,East-West Guiana,Waiwai", "variety": "std", "url": "http://lingweb.eva.mpg.de/cgi-bin/ids/ids.pl?com=simple_browse&lg_id=175", "lon": "-59.63415", "iso": "waw", "key": "waw_std", "lat": "1.35251"}, {"name": "Yanom\u00e1mi", "family": "Yanomam", "variety": "std", "url": "http://lingweb.eva.mpg.de/cgi-bin/ids/ids.pl?com=simple_browse&lg_id=253", "lon": "-62.85224", "iso": "wca", "key": "wca_std", "lat": "2.48999"}, {"name": "Yaminahua", "family": "Panoan,South-Central,Yaminahua-Sharanahua", "variety": "std", "url": "http://lingweb.eva.mpg.de/cgi-bin/ids/ids.pl?com=simple_browse&lg_id=282", "lon": "-72.63496", "iso": "yaa", "key": "yaa_std", "lat": "-10.21319"}, {"name": "Yagua", "family": "Peba-Yaguan", "variety": "std", "url": "http://lingweb.eva.mpg.de/cgi-bin/ids/ids.pl?com=simple_browse&lg_id=260", "lon": "-72.21864", "iso": "yad", "key": "yad_std", "lat": "-3.42913"}, {"name": "Pum\u00e9", "family": "Unclassified", "variety": "std", "url": "http://lingweb.eva.mpg.de/cgi-bin/ids/ids.pl?com=simple_browse&lg_id=251", "lon": "-67.59958", "iso": "yae", "key": "yae_std", "lat": "7.10677"}, {"name": "Y\u00e1mana", "family": "Language isolate", "variety": "std", "url": "http://lingweb.eva.mpg.de/cgi-bin/ids/ids.pl?com=simple_browse&lg_id=315", "lon": "-68.26479", "iso": "yag", "key": "yag_std", "lat": "-55.27479"}, {"name": "Yaqui", "family": "Uto-Aztecan,Southern Uto-Aztecan,Sonoran,Cahita", "variety": "std", "url": "http://wold.livingsources.org/vocabulary/32", "lon": "-110.2979", "iso": "yaq", "key": "yaq_std", "lat": "27.84032"}, {"name": "Yuwana", "family": "Unclassified", "variety": "std", "url": "http://lingweb.eva.mpg.de/cgi-bin/ids/ids.pl?com=simple_browse&lg_id=250", "lon": "-65.4267", "iso": "yau", "key": "yau_std", "lat": "5.63879"}, {"name": "Yiddish, Eastern", "family": "Indo-European,Germanic,West,High German,Yiddish", "variety": "std", "url": "http://lingweb.eva.mpg.de/cgi-bin/ids/ids.pl?com=simple_browse&lg_id=195", "lon": "34.96823", "iso": "ydd", "key": "ydd_std", "lat": "31.79335"}, {"name": "Kathu", "family": "Sino-Tibetan,Tibeto-Burman,Burmic,Ngwi,Southeastern", "variety": "std", "url": "http://wold.livingsources.org/vocabulary/", "lon": "102.710002", "iso": "ykt", "key": "ykt_std", "lat": "25.045806"}, {"name": "Nenets", "family": "Uralic,Samoyed", "variety": "std", "url": "http://lingweb.eva.mpg.de/cgi-bin/ids/ids.pl?com=simple_browse&lg_id=148", "lon": "71.02339", "iso": "yrk", "key": "yrk_std", "lat": "66.17749"}, {"name": "Yavitero", "family": "Arawakan,Maipuran,Northern Maipuran,Inland", "variety": "std", "url": "http://lingweb.eva.mpg.de/cgi-bin/ids/ids.pl?com=simple_browse&lg_id=268", "lon": "-67.42829", "iso": "yvt", "key": "yvt_std", "lat": "9.8194"}, {"name": "Zuni", "family": "Language isolate", "variety": "std", "url": "http://lingweb.eva.mpg.de/cgi-bin/ids/ids.pl?com=simple_browse&lg_id=226", "lon": "-108.78197", "iso": "zun", "key": "zun_std", "lat": "35.00561"}]